{"type":"FeatureCollection","features":[{"type":"Feature","properties":{"endereco":"Rua Direita proximo a esquina da Rua da Estacao","categoria":"BOMBEIRO HIDRANTE"},"geometry":{"type":"Point","coordinates":[-46.302047,-23.778795]}},{"type":"Feature","properties":{"endereco":"Rua Antonio Thomaz 17 Parte Alta defronte a Praca Joao Dias","categoria":"BOMBEIRO HIDRANTE"},"geometry":{"type":"Point","coordinates":[-46.303617,-23.778545]}},{"type":"Feature","properties":{"endereco":"Rua Rodrigues Quaresma defronte a Igreja Matriz de Parapiacaba e Ponto de Encontro Trilhas Ecotur","categoria":"BOMBEIRO HIDRANTE"},"geometry":{"type":"Point","coordinates":[-46.304248,-23.77829]}},{"type":"Feature","properties":{"endereco":"Rua Rodrigues Quaresma esquina com a Rua William Speers","categoria":"BOMBEIRO HIDRANTE"},"geometry":{"type":"Point","coordinates":[-46.303538,-23.778178]}},{"type":"Feature","properties":{"nome":"Destacamento Paranapiacaba","bairro":"Paranapiacaba","endereco":"AVENIDA RODRIGUES ALVES, 28","categoria":"GCM DESTACAMENTO"},"geometry":{"type":"Point","coordinates":[-46.300492,-23.777541]}},{"type":"Feature","properties":{"endereco":"Avenida Antonio Olyntho esquina com a Avenida Campos Salles","categoria":"BOMBEIRO HIDRANTE"},"geometry":{"type":"Point","coordinates":[-46.299723,-23.777478]}},{"type":"Feature","properties":{"endereco":"Avenida Antonio Franscico de Paula Souza 445 B Paranapiacaba","categoria":"BOMBEIRO HIDRANTE"},"geometry":{"type":"Point","coordinates":[-46.300219,-23.77637]}},{"type":"Feature","properties":{"nome":"Polícia Rodoviária Estadual","bairro":"Parque Represa Billings III","endereco":"RODOVIA INDIO TIBIRIÇÁ, s/n","categoria":"PM RODOVIARIA"},"geometry":{"type":"Point","coordinates":[-46.46778,-23.767264]}},{"type":"Feature","properties":{"endereco":"Estrada do Pedroso defronte a Rua Jaguaribe","categoria":"BOMBEIRO HIDRANTE"},"geometry":{"type":"Point","coordinates":[-46.49489,-23.742569]}},{"type":"Feature","properties":{"nome":"Grupamento Ecologico - Pedroso","bairro":"Parque do Pedroso","endereco":"ESTRADA DO PEDROSO, s/n","categoria":"GCM DESTACAMENTO"},"geometry":{"type":"Point","coordinates":[-46.495324,-23.730511]}},{"type":"Feature","properties":{"endereco":"Estrada Cata Preta esquina com a Rua Oiti","categoria":"BOMBEIRO HIDRANTE"},"geometry":{"type":"Point","coordinates":[-46.510722,-23.716901]}},{"type":"Feature","properties":{"endereco":"Estrada Cata Preta 1048 esquina com a Rua Leandro","categoria":"BOMBEIRO HIDRANTE"},"geometry":{"type":"Point","coordinates":[-46.50987,-23.713414]}},{"type":"Feature","properties":{"endereco":"Rua Dos Missionarios 49 proximo a esquina com a Estrada do Pedroso","categoria":"BOMBEIRO HIDRANTE"},"geometry":{"type":"Point","coordinates":[-46.500101,-23.711825]}},{"type":"Feature","properties":{"endereco":"Rua Canaa esquina com a Avenida Loreto","categoria":"BOMBEIRO HIDRANTE"},"geometry":{"type":"Point","coordinates":[-46.499951,-23.706973]}},{"type":"Feature","properties":{"endereco":"Avenida Loreto 31 proximo a esquina com a Estrada do Pedroso","categoria":"BOMBEIRO HIDRANTE"},"geometry":{"type":"Point","coordinates":[-46.502926,-23.705509]}},{"type":"Feature","properties":{"endereco":"Avenida Loreto 321 no interior do Condomi­nio Atlantico Sul em frente ao Bloco 15","categoria":"BOMBEIRO HIDRANTE"},"geometry":{"type":"Point","coordinates":[-46.500589,-23.705325]}},{"type":"Feature","properties":{"endereco":"Rua dos Cocais 520","categoria":"BOMBEIRO HIDRANTE"},"geometry":{"type":"Point","coordinates":[-46.505773,-23.703471]}},{"type":"Feature","properties":{"endereco":"Estrada do Pedroso 312 defronte a Rua Milton Barreto","categoria":"BOMBEIRO HIDRANTE"},"geometry":{"type":"Point","coordinates":[-46.50417,-23.700787]}},{"type":"Feature","properties":{"endereco":"Rua Netuno 05 proximo a esquina com a Avenida Sao Bernardo do Campo","categoria":"BOMBEIRO HIDRANTE"},"geometry":{"type":"Point","coordinates":[-46.506984,-23.69831]}},{"type":"Feature","properties":{"endereco":"Avenida Dom Pedro I 3841 defronte a Rua Alcides Maia","categoria":"BOMBEIRO HIDRANTE"},"geometry":{"type":"Point","coordinates":[-46.505221,-23.697953]}},{"type":"Feature","properties":{"endereco":"Rua Canossa 414 entre a Rua dos Vicentinos e Rua Salesiana","categoria":"BOMBEIRO HIDRANTE"},"geometry":{"type":"Point","coordinates":[-46.497194,-23.710404]}},{"type":"Feature","properties":{"endereco":"Avenida Loreto 321 no interior do Condomi­nio Atlantico Sul defronte ao Bloco 58","categoria":"BOMBEIRO HIDRANTE"},"geometry":{"type":"Point","coordinates":[-46.498625,-23.704818]}},{"type":"Feature","properties":{"nome":"5ª CIA da PM","bairro":"Jardim Santo André CDHU","endereco":"RUA RAUL SEIXAS, 35","categoria":"PM COMPANHIA"},"geometry":{"type":"Point","coordinates":[-46.494301,-23.703536]}},{"type":"Feature","properties":{"endereco":"Rua dos Dominicanos esquina com a Rua Reginaldo Rossi","categoria":"BOMBEIRO HIDRANTE"},"geometry":{"type":"Point","coordinates":[-46.494162,-23.701057]}},{"type":"Feature","properties":{"endereco":"Avenida Primeiro de Dezembro esquina com a Rua Quatorze de Junho","categoria":"BOMBEIRO HIDRANTE"},"geometry":{"type":"Point","coordinates":[-46.498993,-23.700283]}},{"type":"Feature","properties":{"endereco":"Rua Lamartine 426 defronte a Rua Gregorio De Matos","categoria":"BOMBEIRO HIDRANTE"},"geometry":{"type":"Point","coordinates":[-46.495062,-23.697637]}},{"type":"Feature","properties":{"endereco":"Rua Pio XII 357","categoria":"BOMBEIRO HIDRANTE"},"geometry":{"type":"Point","coordinates":[-46.498842,-23.695463]}},{"type":"Feature","properties":{"endereco":"Rua Siracusa 280 defronte a Rua Titan","categoria":"BOMBEIRO HIDRANTE"},"geometry":{"type":"Point","coordinates":[-46.497936,-23.695001]}},{"type":"Feature","properties":{"endereco":"Avenida Mario de Andrade 164 proximo a esquina com a Rua Alberto de Oliveira","categoria":"BOMBEIRO HIDRANTE"},"geometry":{"type":"Point","coordinates":[-46.493547,-23.693924]}},{"type":"Feature","properties":{"endereco":"Rua Batista de Barros 46 defronte a Rua Campos Negreiros","categoria":"BOMBEIRO HIDRANTE"},"geometry":{"type":"Point","coordinates":[-46.49647,-23.693394]}},{"type":"Feature","properties":{"endereco":"Rua Mariano Procopio 142 defronte a Rua Miguel Alves Viana","categoria":"BOMBEIRO HIDRANTE"},"geometry":{"type":"Point","coordinates":[-46.512823,-23.703441]}},{"type":"Feature","properties":{"endereco":"Avenida Sao Bernardo do Campo 89 proximo a esquina com a Rua Manuel de Macedo","categoria":"BOMBEIRO HIDRANTE"},"geometry":{"type":"Point","coordinates":[-46.514583,-23.702888]}},{"type":"Feature","properties":{"endereco":"Avenida Carijos proximo a esquina com a Avenida Aclimacao","categoria":"BOMBEIRO HIDRANTE"},"geometry":{"type":"Point","coordinates":[-46.519022,-23.702693]}},{"type":"Feature","properties":{"endereco":"Rua Carijos 3347 proximo a esquina da Rua Adriatico","categoria":"BOMBEIRO HIDRANTE"},"geometry":{"type":"Point","coordinates":[-46.519218,-23.701378]}},{"type":"Feature","properties":{"endereco":"Rua Arariba esquina com a Rua Alvorada","categoria":"BOMBEIRO HIDRANTE"},"geometry":{"type":"Point","coordinates":[-46.517288,-23.697722]}},{"type":"Feature","properties":{"endereco":"Rua Doutor Almenor Jardim Silveira esquina com a Rua Carijos","categoria":"BOMBEIRO HIDRANTE"},"geometry":{"type":"Point","coordinates":[-46.519691,-23.6964]}},{"type":"Feature","properties":{"endereco":"Rua Doutor Almenor Jardim Silveira defronte a Rua Doutor Osmar Armando Batista","categoria":"BOMBEIRO HIDRANTE"},"geometry":{"type":"Point","coordinates":[-46.522009,-23.695686]}},{"type":"Feature","properties":{"endereco":"Rua Alabastro 579 proximo a esquina com a Rua Apucarana","categoria":"BOMBEIRO HIDRANTE"},"geometry":{"type":"Point","coordinates":[-46.519232,-23.69311]}},{"type":"Feature","properties":{"endereco":"Rua Arapongas 115 paralela a Rua Aqueronte","categoria":"BOMBEIRO HIDRANTE"},"geometry":{"type":"Point","coordinates":[-46.515641,-23.6928]}},{"type":"Feature","properties":{"endereco":"Rua dos Bambus 462 entre a Rua Borore e a Rua Brauna","categoria":"BOMBEIRO HIDRANTE"},"geometry":{"type":"Point","coordinates":[-46.513898,-23.690779]}},{"type":"Feature","properties":{"endereco":"Avenida Mauricio Zirlis entre a Rua Hering e Rua Hercules","categoria":"BOMBEIRO HIDRANTE"},"geometry":{"type":"Point","coordinates":[-46.500005,-23.694913]}},{"type":"Feature","properties":{"nome":"6º Distrito Policial de Santo André","bairro":"Jardim Telles de Menezes","endereco":"RUA SIGMA, 300","categoria":"PCIVIL DELEGACIA"},"geometry":{"type":"Point","coordinates":[-46.508854,-23.693721]}},{"type":"Feature","properties":{"nome":"3º Inspetoria (CIC)","bairro":"Jardim Telles de Menezes","endereco":"RUA SIGMA, 300","categoria":"GCM INSPETORIA"},"geometry":{"type":"Point","coordinates":[-46.508854,-23.693721]}},{"type":"Feature","properties":{"endereco":"Rua do Amaro 145 esquina com a Rua Laudelino Freire","categoria":"BOMBEIRO HIDRANTE"},"geometry":{"type":"Point","coordinates":[-46.50741,-23.693007]}},{"type":"Feature","properties":{"endereco":"Rua Alberto Zirlis 690 proximo a esquina com a Rua Lutecia","categoria":"BOMBEIRO HIDRANTE"},"geometry":{"type":"Point","coordinates":[-46.499385,-23.691503]}},{"type":"Feature","properties":{"endereco":"Avenida Paulo Novaes 530 proximo a esquina com a Praca Ivanilton Costa Santos","categoria":"BOMBEIRO HIDRANTE"},"geometry":{"type":"Point","coordinates":[-46.508788,-23.690407]}},{"type":"Feature","properties":{"endereco":"Rua Doutor Mayera esquina com a Rua Afonso Aquinos","categoria":"BOMBEIRO HIDRANTE"},"geometry":{"type":"Point","coordinates":[-46.503792,-23.688665]}},{"type":"Feature","properties":{"endereco":"Avenida Paulo Novaes 391 defronte a Rua Martim Pinheiro","categoria":"BOMBEIRO HIDRANTE"},"geometry":{"type":"Point","coordinates":[-46.508551,-23.688105]}},{"type":"Feature","properties":{"endereco":"Rua Cisplatina 1746 defronte a Rua Itanage","categoria":"BOMBEIRO HIDRANTE"},"geometry":{"type":"Point","coordinates":[-46.503451,-23.686563]}},{"type":"Feature","properties":{"endereco":"Rua Icarai esquina com a Rua Cisplatina","categoria":"BOMBEIRO HIDRANTE"},"geometry":{"type":"Point","coordinates":[-46.506776,-23.682625]}},{"type":"Feature","properties":{"endereco":"Rua Alabastro 124 proximo a esquina com a Rua Agulhas Negras","categoria":"BOMBEIRO HIDRANTE"},"geometry":{"type":"Point","coordinates":[-46.520034,-23.689749]}},{"type":"Feature","properties":{"endereco":"Avenida Aurea 629 defronte a Rua Ofir","categoria":"BOMBEIRO HIDRANTE"},"geometry":{"type":"Point","coordinates":[-46.514976,-23.68921]}},{"type":"Feature","properties":{"endereco":"Rua Embare 386 entre as Rua Juno e Rua dos Bambus","categoria":"BOMBEIRO HIDRANTE"},"geometry":{"type":"Point","coordinates":[-46.518517,-23.688262]}},{"type":"Feature","properties":{"endereco":"Avenida Hortencias 612 esquina com a Rua Amarilis","categoria":"BOMBEIRO HIDRANTE"},"geometry":{"type":"Point","coordinates":[-46.516535,-23.681867]}},{"type":"Feature","properties":{"endereco":"Avenida Carijos 600 esquina com a Rua Paranapanema","categoria":"BOMBEIRO HIDRANTE"},"geometry":{"type":"Point","coordinates":[-46.520359,-23.675827]}},{"type":"Feature","properties":{"endereco":"Rua Dos Emboabas 131 esquina com a Avenida Andrade Neves","categoria":"BOMBEIRO HIDRANTE"},"geometry":{"type":"Point","coordinates":[-46.516799,-23.675428]}},{"type":"Feature","properties":{"nome":"3º Distrito Policial de Santo André","bairro":"Vila Pires","endereco":"RUA VINTE E UM DE ABRIL, 46","categoria":"PCIVIL DELEGACIA"},"geometry":{"type":"Point","coordinates":[-46.513216,-23.671609]}},{"type":"Feature","properties":{"endereco":"Rua Vinte e Quatro de Maio esquina com a Rua Sao Pedro","categoria":"BOMBEIRO HIDRANTE"},"geometry":{"type":"Point","coordinates":[-46.512221,-23.669688]}},{"type":"Feature","properties":{"endereco":"Rua Coronel Seabra entre a Rua Manoel Vaz e Tancredo do Amaral","categoria":"BOMBEIRO HIDRANTE"},"geometry":{"type":"Point","coordinates":[-46.520855,-23.668014]}},{"type":"Feature","properties":{"nome":"Corpo de Bombeiros","bairro":"Vila Alzira","endereco":"AVENIDA SANTOS DUMONT, 264","categoria":"BOMBEIRO AGRUPAM"},"geometry":{"type":"Point","coordinates":[-46.519599,-23.6663]}},{"type":"Feature","properties":{"endereco":"Avenida Queiros Filho proximo a esquina da Rua Catarina Maria","categoria":"BOMBEIRO HIDRANTE"},"geometry":{"type":"Point","coordinates":[-46.500009,-23.6824]}},{"type":"Feature","properties":{"endereco":"Rua Coimbra esquina com a Rua Miguel Couto","categoria":"BOMBEIRO HIDRANTE"},"geometry":{"type":"Point","coordinates":[-46.511175,-23.678817]}},{"type":"Feature","properties":{"endereco":"Avenida Queiros Filho entre a Rua Monteiro Lobato e Rua Chambre","categoria":"BOMBEIRO HIDRANTE"},"geometry":{"type":"Point","coordinates":[-46.501281,-23.677246]}},{"type":"Feature","properties":{"endereco":"Rua Cisplatina esquina com a Rua Caquito","categoria":"BOMBEIRO HIDRANTE"},"geometry":{"type":"Point","coordinates":[-46.509379,-23.675629]}},{"type":"Feature","properties":{"endereco":"Avenida Valentim Magalhaes 562 defronte a Rua Odorico","categoria":"BOMBEIRO HIDRANTE"},"geometry":{"type":"Point","coordinates":[-46.499686,-23.675096]}},{"type":"Feature","properties":{"endereco":"Rua Cisplatina esquina com a Rua Xavantes","categoria":"BOMBEIRO HIDRANTE"},"geometry":{"type":"Point","coordinates":[-46.509768,-23.674628]}},{"type":"Feature","properties":{"nome":"Corregedoria GCM","bairro":"Vila Humaitá","endereco":"AVENIDA QUEIRÓS FILHO, 1020","categoria":"GCM CORREGEDORIA"},"geometry":{"type":"Point","coordinates":[-46.504359,-23.672646]}},{"type":"Feature","properties":{"endereco":"Rua Zaira 206 esquina com a Rua Conde de Sarzedas","categoria":"BOMBEIRO HIDRANTE"},"geometry":{"type":"Point","coordinates":[-46.500211,-23.671417]}},{"type":"Feature","properties":{"endereco":"Rua Caraibas 46 proximo a esquina com a Rua Jurema","categoria":"BOMBEIRO HIDRANTE"},"geometry":{"type":"Point","coordinates":[-46.502232,-23.670535]}},{"type":"Feature","properties":{"endereco":"Rua Leonardo da Vinci 73 esquina com a Rua Homem de Melo","categoria":"BOMBEIRO HIDRANTE"},"geometry":{"type":"Point","coordinates":[-46.500113,-23.669581]}},{"type":"Feature","properties":{"endereco":"Rua Benedito Calixto 162 proximo a esquina com a Rua Claudio de Souza","categoria":"BOMBEIRO HIDRANTE"},"geometry":{"type":"Point","coordinates":[-46.496099,-23.691758]}},{"type":"Feature","properties":{"endereco":"Avenida Queiros Filho 2943 proximo a esquina com a Rua Correa de Azevedo","categoria":"BOMBEIRO HIDRANTE"},"geometry":{"type":"Point","coordinates":[-46.499045,-23.689914]}},{"type":"Feature","properties":{"endereco":"Avenida Queiros Filho 2634 defronte a Paroquia Sao Geraldo Magella","categoria":"BOMBEIRO HIDRANTE"},"geometry":{"type":"Point","coordinates":[-46.499257,-23.687417]}},{"type":"Feature","properties":{"endereco":"Avenida Valentim Magalhaes entre a Rua Alcino Guanabara e a Rua Alberto de Faria","categoria":"BOMBEIRO HIDRANTE"},"geometry":{"type":"Point","coordinates":[-46.495682,-23.684815]}},{"type":"Feature","properties":{"endereco":"Avenida Valentim Magalhaes 1468 proximo a esquina da Rua Adelino Fontoura","categoria":"BOMBEIRO HIDRANTE"},"geometry":{"type":"Point","coordinates":[-46.495984,-23.682205]}},{"type":"Feature","properties":{"endereco":"Avenida Valentim Magalhaes 1058 proximo a esquina da Rua Catende","categoria":"BOMBEIRO HIDRANTE"},"geometry":{"type":"Point","coordinates":[-46.497713,-23.67859]}},{"type":"Feature","properties":{"endereco":"Rua Espirito Santo entre a Rua Caldas e Rua Amazonas","categoria":"BOMBEIRO HIDRANTE"},"geometry":{"type":"Point","coordinates":[-46.486591,-23.676112]}},{"type":"Feature","properties":{"endereco":"Rua Paraiba esquina com a Rua Sao Paulo","categoria":"BOMBEIRO HIDRANTE"},"geometry":{"type":"Point","coordinates":[-46.48307,-23.673415]}},{"type":"Feature","properties":{"endereco":"Rua Diadema 115 esquina com a Rua Amazonas","categoria":"BOMBEIRO HIDRANTE"},"geometry":{"type":"Point","coordinates":[-46.486459,-23.671883]}},{"type":"Feature","properties":{"endereco":"Avenida Guaratingueta 296 esquina com a Rua Guapiara","categoria":"BOMBEIRO HIDRANTE"},"geometry":{"type":"Point","coordinates":[-46.498878,-23.651527]}},{"type":"Feature","properties":{"nome":"Superintendência Santo André","bairro":"Silveira","endereco":"AVENIDA CAPITÃO MÁRIO TOLEDO DE CAMARGO, 100","categoria":"PCIENT SUPERINTENDEN"},"geometry":{"type":"Point","coordinates":[-46.512318,-23.666241]}},{"type":"Feature","properties":{"nome":"EPC Santo André","bairro":"Silveira","endereco":"AVENIDA CAPITÃO MÁRIO TOLEDO DE CAMARGO, 100","categoria":"PCIENT INT CRIMINAL"},"geometry":{"type":"Point","coordinates":[-46.512318,-23.666241]}},{"type":"Feature","properties":{"endereco":"Avenida Santos Dumont 264 em frente ao PB Vila Alzira","categoria":"BOMBEIRO HIDRANTE"},"geometry":{"type":"Point","coordinates":[-46.519523,-23.666191]}},{"type":"Feature","properties":{"endereco":"Rua Arthur de Queiros 1029 esquina com a Avenida Santos Dumont","categoria":"BOMBEIRO HIDRANTE"},"geometry":{"type":"Point","coordinates":[-46.519027,-23.665596]}},{"type":"Feature","properties":{"endereco":"Avenida Santos Dumont 612 proximo a esquina com a Avenida Dom Pedro I","categoria":"BOMBEIRO HIDRANTE"},"geometry":{"type":"Point","coordinates":[-46.515777,-23.665052]}},{"type":"Feature","properties":{"endereco":"Rua Onze de Junho 888 esquina com avenida Artur de Queiros","categoria":"BOMBEIRO HIDRANTE"},"geometry":{"type":"Point","coordinates":[-46.519535,-23.664115]}},{"type":"Feature","properties":{"endereco":"Avenida Santos Dumont Rua Professor Garrete","categoria":"BOMBEIRO HIDRANTE"},"geometry":{"type":"Point","coordinates":[-46.514033,-23.663991]}},{"type":"Feature","properties":{"endereco":"Rua Onde de Junho 770 esquina com a Rua dos Canudos","categoria":"BOMBEIRO HIDRANTE"},"geometry":{"type":"Point","coordinates":[-46.521053,-23.66388]}},{"type":"Feature","properties":{"endereco":"Avenida Queiros dos Santos esquina com a Rua Margarida","categoria":"BOMBEIRO HIDRANTE"},"geometry":{"type":"Point","coordinates":[-46.515732,-23.662477]}},{"type":"Feature","properties":{"endereco":"Rua Coronel Ortiz esquina com a Rua Onze De Junho","categoria":"BOMBEIRO HIDRANTE"},"geometry":{"type":"Point","coordinates":[-46.522276,-23.661879]}},{"type":"Feature","properties":{"endereco":"Rua Vinte e Quatro de Maio 575 proximo a esquina com a Rua Cristovao Colombo","categoria":"BOMBEIRO HIDRANTE"},"geometry":{"type":"Point","coordinates":[-46.50867,-23.668149]}},{"type":"Feature","properties":{"endereco":"Rua Pedro Goes 28 proximo a esquina com a Avenida Pedro Americo","categoria":"BOMBEIRO HIDRANTE"},"geometry":{"type":"Point","coordinates":[-46.506175,-23.666772]}},{"type":"Feature","properties":{"endereco":"Avenida Capuava esquina com a Avenida Guaianazes","categoria":"BOMBEIRO HIDRANTE"},"geometry":{"type":"Point","coordinates":[-46.500482,-23.66574]}},{"type":"Feature","properties":{"endereco":"Avenida Sorocaba 301","categoria":"BOMBEIRO HIDRANTE"},"geometry":{"type":"Point","coordinates":[-46.506873,-23.651266]}},{"type":"Feature","properties":{"endereco":"Rua Piracanjuba proximo da esquina com a Rua Itapemirim","categoria":"BOMBEIRO HIDRANTE"},"geometry":{"type":"Point","coordinates":[-46.508305,-23.648876]}},{"type":"Feature","properties":{"endereco":"Rua Maragogipe 384","categoria":"BOMBEIRO HIDRANTE"},"geometry":{"type":"Point","coordinates":[-46.509543,-23.648717]}},{"type":"Feature","properties":{"endereco":"Rua Taua esquina com a Rua Potirendaba","categoria":"BOMBEIRO HIDRANTE"},"geometry":{"type":"Point","coordinates":[-46.504857,-23.647791]}},{"type":"Feature","properties":{"endereco":"Rua Maragogipe 102 defronte a Rua Massaranduba","categoria":"BOMBEIRO HIDRANTE"},"geometry":{"type":"Point","coordinates":[-46.509577,-23.64623]}},{"type":"Feature","properties":{"endereco":"Rua Massaranduba 109 esquina com a Rua Porangaba","categoria":"BOMBEIRO HIDRANTE"},"geometry":{"type":"Point","coordinates":[-46.508245,-23.645883]}},{"type":"Feature","properties":{"endereco":"Avenida Itamarati esquina com a Rua Flamengo","categoria":"BOMBEIRO HIDRANTE"},"geometry":{"type":"Point","coordinates":[-46.500229,-23.645751]}},{"type":"Feature","properties":{"endereco":"Rua Professor Antonio Seixas Leite Ribeiro proximo a Rua Pascoal Peduto","categoria":"BOMBEIRO HIDRANTE"},"geometry":{"type":"Point","coordinates":[-46.524939,-23.697866]}},{"type":"Feature","properties":{"endereco":"Avenida Brasilia 695 esquina com a Rua Macuco","categoria":"BOMBEIRO HIDRANTE"},"geometry":{"type":"Point","coordinates":[-46.527821,-23.692417]}},{"type":"Feature","properties":{"endereco":"Avenida Rangel Pestana 1011 esquina com a Rua Aluisio Coimbra","categoria":"BOMBEIRO HIDRANTE"},"geometry":{"type":"Point","coordinates":[-46.531011,-23.688827]}},{"type":"Feature","properties":{"endereco":"Avenida Rangel Pestana proximo a esquina com a Rua Martinopolis","categoria":"BOMBEIRO HIDRANTE"},"geometry":{"type":"Point","coordinates":[-46.528693,-23.687121]}},{"type":"Feature","properties":{"endereco":"Rua Urupes 114 esquina com a Rua Ferreira","categoria":"BOMBEIRO HIDRANTE"},"geometry":{"type":"Point","coordinates":[-46.530306,-23.686978]}},{"type":"Feature","properties":{"endereco":"Avenida dos Andradas esquina com a Rua Florianopolis","categoria":"BOMBEIRO HIDRANTE"},"geometry":{"type":"Point","coordinates":[-46.528852,-23.668063]}},{"type":"Feature","properties":{"endereco":"Rua Guilherme Marconi defronte a Avenida Doutor Erasmo","categoria":"BOMBEIRO HIDRANTE"},"geometry":{"type":"Point","coordinates":[-46.525753,-23.667736]}},{"type":"Feature","properties":{"endereco":"Avenida Coronel Fernando Prestes 786 proximo a Rua Doutor Alberto Benedetti","categoria":"BOMBEIRO HIDRANTE"},"geometry":{"type":"Point","coordinates":[-46.53086,-23.66544]}},{"type":"Feature","properties":{"endereco":"Avenida Joao Ramalho 100 defronte a Rua Siqueira Campos","categoria":"BOMBEIRO HIDRANTE"},"geometry":{"type":"Point","coordinates":[-46.528917,-23.664096]}},{"type":"Feature","properties":{"endereco":"Rua Coronel Alfredo Flaquer esquina com a Rua Coronel Abilio Soares","categoria":"BOMBEIRO HIDRANTE"},"geometry":{"type":"Point","coordinates":[-46.524992,-23.663195]}},{"type":"Feature","properties":{"endereco":"Estrada Joao Ducin esquina com a Rua Maracai","categoria":"BOMBEIRO HIDRANTE"},"geometry":{"type":"Point","coordinates":[-46.533674,-23.686085]}},{"type":"Feature","properties":{"endereco":"Estrada Joao Ducin defronte com a Rua Ipua","categoria":"BOMBEIRO HIDRANTE"},"geometry":{"type":"Point","coordinates":[-46.533353,-23.685856]}},{"type":"Feature","properties":{"endereco":"Rua Carandiru 07 esquina com a Rua Curuzu","categoria":"BOMBEIRO HIDRANTE"},"geometry":{"type":"Point","coordinates":[-46.537014,-23.68461]}},{"type":"Feature","properties":{"nome":"6ª CIA da PM","bairro":"Jardim Stella","endereco":"RUA CURUZU, 541","categoria":"PM COMPANHIA"},"geometry":{"type":"Point","coordinates":[-46.535233,-23.684588]}},{"type":"Feature","properties":{"nome":"7ª CIA da PM","bairro":"Jardim Stella","endereco":"RUA CURUZU, 541","categoria":"PM COMPANHIA"},"geometry":{"type":"Point","coordinates":[-46.535688,-23.684062]}},{"type":"Feature","properties":{"endereco":"Rua Ana Jarvis esquina com a Rua Oliveira Coutinho","categoria":"BOMBEIRO HIDRANTE"},"geometry":{"type":"Point","coordinates":[-46.543559,-23.681558]}},{"type":"Feature","properties":{"nome":"4ª CIA da PM","bairro":"Vila Scarpelli","endereco":"RUA CURUPAITI, 49","categoria":"PM COMPANHIA"},"geometry":{"type":"Point","coordinates":[-46.542311,-23.68031]}},{"type":"Feature","properties":{"endereco":"Rua Oswaldo Cruz esquina com a Rua Adolfo Lutz","categoria":"BOMBEIRO HIDRANTE"},"geometry":{"type":"Point","coordinates":[-46.534149,-23.679126]}},{"type":"Feature","properties":{"endereco":"Rua Macauba esquina com a Rua Alenquer","categoria":"BOMBEIRO HIDRANTE"},"geometry":{"type":"Point","coordinates":[-46.53481,-23.675702]}},{"type":"Feature","properties":{"nome":"Delegacia de Polícia de Proteção ao Idoso de Santo André","bairro":"Pinheirinho","endereco":"RUA FILINTO DE ALMEIDA, 115","categoria":"PCIVIL DELEGACIA"},"geometry":{"type":"Point","coordinates":[-46.541398,-23.674195]}},{"type":"Feature","properties":{"endereco":"Rua Muritiba Proxima a esquina com a Rua Caminho do Pilar","categoria":"BOMBEIRO HIDRANTE"},"geometry":{"type":"Point","coordinates":[-46.542409,-23.67415]}},{"type":"Feature","properties":{"endereco":"Rua Andarai 569 proximo a esquina com a Rua Paraguacu","categoria":"BOMBEIRO HIDRANTE"},"geometry":{"type":"Point","coordinates":[-46.543854,-23.672132]}},{"type":"Feature","properties":{"endereco":"Rua Andarai 251 proximo a esquina com a Rua Itabuna","categoria":"BOMBEIRO HIDRANTE"},"geometry":{"type":"Point","coordinates":[-46.540555,-23.671084]}},{"type":"Feature","properties":{"endereco":"Avenida Higienopolis 129 esquina com a Rua Carlos Magno","categoria":"BOMBEIRO HIDRANTE"},"geometry":{"type":"Point","coordinates":[-46.539207,-23.670999]}},{"type":"Feature","properties":{"endereco":"Rua Alexandre Fleming defronte a Rua Manicore","categoria":"BOMBEIRO HIDRANTE"},"geometry":{"type":"Point","coordinates":[-46.540586,-23.669578]}},{"type":"Feature","properties":{"endereco":"Rua Doutor Armando de Arruda Pereira 16 esquina com a Rua Alexandre Fleming","categoria":"BOMBEIRO HIDRANTE"},"geometry":{"type":"Point","coordinates":[-46.541699,-23.668999]}},{"type":"Feature","properties":{"nome":"PEP - Shopping ABC - SP","bairro":"Vila Gilda","endereco":"AVENIDA PEREIRA BARRETO, 42","categoria":"PFEDERAL POSTO"},"geometry":{"type":"Point","coordinates":[-46.53356,-23.668015]}},{"type":"Feature","properties":{"endereco":"Avenida Portugal esquina com a Rua Souza Caldas","categoria":"BOMBEIRO HIDRANTE"},"geometry":{"type":"Point","coordinates":[-46.535336,-23.666957]}},{"type":"Feature","properties":{"endereco":"Rua Doutor Eduardo Monteiro esquina com a Rua da Fonte","categoria":"BOMBEIRO HIDRANTE"},"geometry":{"type":"Point","coordinates":[-46.535993,-23.664838]}},{"type":"Feature","properties":{"endereco":"Avenida Portugal 777 defronte a Rua Arnaldo","categoria":"BOMBEIRO HIDRANTE"},"geometry":{"type":"Point","coordinates":[-46.533,-23.662579]}},{"type":"Feature","properties":{"nome":"Delegacia Seccional de Polícia de Santo André - SEDE","bairro":"Vila Valparaíso","endereco":"RUA XINGU, 745","categoria":"PCIVIL DELEGACIA"},"geometry":{"type":"Point","coordinates":[-46.547727,-23.670981]}},{"type":"Feature","properties":{"endereco":"Rua Rio Preto esquina com a Rua dos Morrados","categoria":"BOMBEIRO HIDRANTE"},"geometry":{"type":"Point","coordinates":[-46.547391,-23.66912]}},{"type":"Feature","properties":{"endereco":"Avenida Atlantica esquina com a Rua Simoes Dias","categoria":"BOMBEIRO HIDRANTE"},"geometry":{"type":"Point","coordinates":[-46.552563,-23.668919]}},{"type":"Feature","properties":{"endereco":"Avenida Atlantica proximo a Travessa do Jardim","categoria":"BOMBEIRO HIDRANTE"},"geometry":{"type":"Point","coordinates":[-46.545129,-23.666391]}},{"type":"Feature","properties":{"endereco":"Rua Guarani proximo a esquina Rua Monte Alto","categoria":"BOMBEIRO HIDRANTE"},"geometry":{"type":"Point","coordinates":[-46.547294,-23.66507]}},{"type":"Feature","properties":{"endereco":"Rua Igarapava esquina com a Rua Gra Bretanha","categoria":"BOMBEIRO HIDRANTE"},"geometry":{"type":"Point","coordinates":[-46.553069,-23.665042]}},{"type":"Feature","properties":{"endereco":"Rua Adolfo Laves 211 entre a Rua Rio Negro e Rua Budapeste","categoria":"BOMBEIRO HIDRANTE"},"geometry":{"type":"Point","coordinates":[-46.545445,-23.664687]}},{"type":"Feature","properties":{"endereco":"Rua Vicente de Carvalho esquina com a Rua Joaquim Nabuco","categoria":"BOMBEIRO HIDRANTE"},"geometry":{"type":"Point","coordinates":[-46.55248,-23.663]}},{"type":"Feature","properties":{"nome":"EPML Santo André","bairro":"Vila Príncipe de Gales","endereco":"AVENIDA PRÍNCIPE DE GALES, 821","categoria":"PCIENT IML"},"geometry":{"type":"Point","coordinates":[-46.555811,-23.660288]}},{"type":"Feature","properties":{"endereco":"Avenida Principe de Gales esquina com a Avenida do Conhecimento","categoria":"BOMBEIRO HIDRANTE"},"geometry":{"type":"Point","coordinates":[-46.555643,-23.660149]}},{"type":"Feature","properties":{"endereco":"Avenida Coronel Alfredo Flaquer esquina com a Rua Coronel Francisco Amaro","categoria":"BOMBEIRO HIDRANTE"},"geometry":{"type":"Point","coordinates":[-46.525801,-23.662518]}},{"type":"Feature","properties":{"endereco":"Rua Siqueira Campos esquina com a Avenida Coronel Alfredo Flaquer","categoria":"BOMBEIRO HIDRANTE"},"geometry":{"type":"Point","coordinates":[-46.526953,-23.661961]}},{"type":"Feature","properties":{"endereco":"Rua Siqueira Campos esquina com a Rua Gertrudes de Lima","categoria":"BOMBEIRO HIDRANTE"},"geometry":{"type":"Point","coordinates":[-46.526363,-23.66139]}},{"type":"Feature","properties":{"endereco":"Rua Coronel Alfredo Flaquer 585 esquina com a Rua Coronel Ortiz","categoria":"BOMBEIRO HIDRANTE"},"geometry":{"type":"Point","coordinates":[-46.529822,-23.660957]}},{"type":"Feature","properties":{"endereco":"Rua Siqueira Campos esquina com a Rua Flaquer","categoria":"BOMBEIRO HIDRANTE"},"geometry":{"type":"Point","coordinates":[-46.525697,-23.660736]}},{"type":"Feature","properties":{"endereco":"Avenida Coronel Alfredo Flaquer esquina com a Rua Coronel Fernando Prestes","categoria":"BOMBEIRO HIDRANTE"},"geometry":{"type":"Point","coordinates":[-46.528155,-23.660373]}},{"type":"Feature","properties":{"endereco":"Rua Siqueira Campos esquina com a Rua Xavier de Toledo","categoria":"BOMBEIRO HIDRANTE"},"geometry":{"type":"Point","coordinates":[-46.52499,-23.660003]}},{"type":"Feature","properties":{"endereco":"Rua Prefeito Justino Paixao esquina com a Rua Alvares De Azevedo","categoria":"BOMBEIRO HIDRANTE"},"geometry":{"type":"Point","coordinates":[-46.529279,-23.65982]}},{"type":"Feature","properties":{"endereco":"Rua Coronel Fernando Prestes defronte Rua Senador Flaquer","categoria":"BOMBEIRO HIDRANTE"},"geometry":{"type":"Point","coordinates":[-46.527209,-23.659381]}},{"type":"Feature","properties":{"nome":"1º Distrito Policial de Santo André","bairro":"Centro","endereco":"RUA XAVIER DE TOLEDO, 48","categoria":"PCIVIL DELEGACIA"},"geometry":{"type":"Point","coordinates":[-46.526304,-23.659279]}},{"type":"Feature","properties":{"endereco":"Rua Xavier de Toledo esquina com a Rua Luis Pinto Flaquer","categoria":"BOMBEIRO HIDRANTE"},"geometry":{"type":"Point","coordinates":[-46.526527,-23.658865]}},{"type":"Feature","properties":{"endereco":"Avenida Jose Caballero esquina com a Rua Laura","categoria":"BOMBEIRO HIDRANTE"},"geometry":{"type":"Point","coordinates":[-46.532871,-23.658118]}},{"type":"Feature","properties":{"endereco":"Calcada da Rua Coronel Oliveira Lima proxima da esquina com a Rua Dona Elisa Flaquer","categoria":"BOMBEIRO HIDRANTE"},"geometry":{"type":"Point","coordinates":[-46.527206,-23.657973]}},{"type":"Feature","properties":{"endereco":"Forum Municipal de Santo Andre ao lado da passagem Luso Brasileiro","categoria":"BOMBEIRO HIDRANTE"},"geometry":{"type":"Point","coordinates":[-46.532532,-23.657592]}},{"type":"Feature","properties":{"nome":"Departamento de Planejamento e Operações de Segurança (DPOS)","bairro":"Centro","endereco":"PRAÇA QUARTO CENTENÁRIO, s/n, Prédio do Executivo - 3º andar","categoria":"CIDADA DEPARTAMENTO"},"geometry":{"type":"Point","coordinates":[-46.532931,-23.657334]}},{"type":"Feature","properties":{"endereco":"Rua Coronel Oliveira Lima esquina com a Rua Monte Casseros","categoria":"BOMBEIRO HIDRANTE"},"geometry":{"type":"Point","coordinates":[-46.527284,-23.657092]}},{"type":"Feature","properties":{"endereco":"Avenida Portugal esquina com a Rua Delfim Moreira","categoria":"BOMBEIRO HIDRANTE"},"geometry":{"type":"Point","coordinates":[-46.530127,-23.656144]}},{"type":"Feature","properties":{"endereco":"Rua Bernardino de Campos esquina com a Rua Campos Sales","categoria":"BOMBEIRO HIDRANTE"},"geometry":{"type":"Point","coordinates":[-46.528783,-23.655261]}},{"type":"Feature","properties":{"endereco":"Rua Coronel Oliveira Lima 110 esquina com a Rua General Glicerio","categoria":"BOMBEIRO HIDRANTE"},"geometry":{"type":"Point","coordinates":[-46.527005,-23.655064]}},{"type":"Feature","properties":{"endereco":"Rua Coronel Oliveira Lima 70 entre a Avenida Queiros dos Santos e Rua General Glicerio","categoria":"BOMBEIRO HIDRANTE"},"geometry":{"type":"Point","coordinates":[-46.526556,-23.65441]}},{"type":"Feature","properties":{"endereco":"Avenida Prestes Maia esquina com a Rua Machado de Assis","categoria":"BOMBEIRO HIDRANTE"},"geometry":{"type":"Point","coordinates":[-46.55163,-23.658304]}},{"type":"Feature","properties":{"endereco":"Rua Lauro Muler entre a Rua Marcos Teixeira e Avenida Novo Horizonte","categoria":"BOMBEIRO HIDRANTE"},"geometry":{"type":"Point","coordinates":[-46.55908,-23.655325]}},{"type":"Feature","properties":{"endereco":"Rua Lauro Muler esquina com a Avenida Novo Horizonte","categoria":"BOMBEIRO HIDRANTE"},"geometry":{"type":"Point","coordinates":[-46.559924,-23.65516]}},{"type":"Feature","properties":{"nome":"Centro de Detenção Provisória de Santo André","bairro":"Vila Aquilino","endereco":"AVENIDA DOM JORGE MARCOS DE OLIVEIRA, 85","categoria":"PCIVIL CENTRO DETENC"},"geometry":{"type":"Point","coordinates":[-46.550025,-23.654804]}},{"type":"Feature","properties":{"endereco":"Rua Las Palmas entre a Rua Dos Marcianos e Rua Lauro Muler","categoria":"BOMBEIRO HIDRANTE"},"geometry":{"type":"Point","coordinates":[-46.559755,-23.654414]}},{"type":"Feature","properties":{"nome":"Inspetoria Comando - Gabinete","bairro":"Santa Maria","endereco":"RUA CORONEL - PM CELESTINO HENRIQUE FERNANDES, 200","categoria":"GCM INSPETORIA"},"geometry":{"type":"Point","coordinates":[-46.549259,-23.654129]}},{"type":"Feature","properties":{"endereco":"Avenida Gago Coutinho defronte a Rua Paraibuna","categoria":"BOMBEIRO HIDRANTE"},"geometry":{"type":"Point","coordinates":[-46.554182,-23.654054]}},{"type":"Feature","properties":{"endereco":"Rua Silveiras esquina com a Rua Tamarutaca","categoria":"BOMBEIRO HIDRANTE"},"geometry":{"type":"Point","coordinates":[-46.545464,-23.653947]}},{"type":"Feature","properties":{"nome":"Segurança Patrimonial","bairro":"Santa Maria","endereco":"RUA CORONEL - PM CELESTINO HENRIQUE FERNANDES, 200","categoria":"GCM SEG PATRIMONIAL"},"geometry":{"type":"Point","coordinates":[-46.549554,-23.653841]}},{"type":"Feature","properties":{"nome":"Inspetoria de Governança Cidadã","bairro":"Santa Maria","endereco":"RUA CORONEL - PM CELESTINO HENRIQUE FERNANDES, 200","categoria":"GCM INSPETORIA"},"geometry":{"type":"Point","coordinates":[-46.549555,-23.65384]}},{"type":"Feature","properties":{"nome":"Delegacia de Defesa da Mulher e Proteção da Infância e Juventude","bairro":"Jardim Bela Vista","endereco":"RUA LAURA, 452","categoria":"PCIVIL DELEGACIA"},"geometry":{"type":"Point","coordinates":[-46.534598,-23.6623]}},{"type":"Feature","properties":{"endereco":"Rua Gonzaga Franco esquina com a Rua Catequese","categoria":"BOMBEIRO HIDRANTE"},"geometry":{"type":"Point","coordinates":[-46.541599,-23.659568]}},{"type":"Feature","properties":{"endereco":"Avenida Jose Caballero em frente a Praca IV Centenario e Forum Municipal de Santo Andre","categoria":"BOMBEIRO HIDRANTE"},"geometry":{"type":"Point","coordinates":[-46.533228,-23.658374]}},{"type":"Feature","properties":{"endereco":"Rua Antonio Cubas 314 defronte a Rua Paula Sousa","categoria":"BOMBEIRO HIDRANTE"},"geometry":{"type":"Point","coordinates":[-46.54426,-23.657517]}},{"type":"Feature","properties":{"nome":"Departamento de Articulação de Políticas de Segurança (DAPS)","bairro":"Centro","endereco":"PRAÇA QUARTO CENTENÁRIO, s/n, Prédio do Executivo - 3º andar","categoria":"CIDADA DEPARTAMENTO"},"geometry":{"type":"Point","coordinates":[-46.532931,-23.657334]}},{"type":"Feature","properties":{"endereco":"Rua Adolfo Bastos Esquina com Rua das Figueiras","categoria":"BOMBEIRO HIDRANTE"},"geometry":{"type":"Point","coordinates":[-46.535381,-23.656999]}},{"type":"Feature","properties":{"nome":"4º Distrito Policial de Santo André","bairro":"Vila Guiomar","endereco":"PRAÇA MINISTRO SALGADO FILHO, 674","categoria":"PCIVIL DELEGACIA"},"geometry":{"type":"Point","coordinates":[-46.543356,-23.654463]}},{"type":"Feature","properties":{"endereco":"Rua Ester esquina com a Rua Itapevi","categoria":"BOMBEIRO HIDRANTE"},"geometry":{"type":"Point","coordinates":[-46.543554,-23.653152]}},{"type":"Feature","properties":{"endereco":"Rua Ester defronte a Rua Santo Helio","categoria":"BOMBEIRO HIDRANTE"},"geometry":{"type":"Point","coordinates":[-46.5418,-23.652998]}},{"type":"Feature","properties":{"endereco":"Rua das Paineiras esquina com a Rua das Pitangueiras","categoria":"BOMBEIRO HIDRANTE"},"geometry":{"type":"Point","coordinates":[-46.538506,-23.64893]}},{"type":"Feature","properties":{"nome":"DISE","bairro":"Vila Aquilino","endereco":"AVENIDA DOM JORGE MARCOS DE OLIVEIRA, 11","categoria":"PCIVIL DELEGACIA"},"geometry":{"type":"Point","coordinates":[-46.550984,-23.653446]}},{"type":"Feature","properties":{"nome":"DICMA","bairro":"Vila Aquilino","endereco":"AVENIDA DOM JORGE MARCOS DE OLIVEIRA, 11","categoria":"PCIVIL DELEGACIA"},"geometry":{"type":"Point","coordinates":[-46.550984,-23.653446]}},{"type":"Feature","properties":{"nome":"Cadeia Pública de Santo André","bairro":"Vila Aquilino","endereco":"AVENIDA DOM JORGE MARCOS DE OLIVEIRA, 11","categoria":"PCIVIL DELEGACIA"},"geometry":{"type":"Point","coordinates":[-46.550984,-23.653446]}},{"type":"Feature","properties":{"endereco":"Avenida Dom Jorge Marcos de Oliveira 11","categoria":"BOMBEIRO HIDRANTE"},"geometry":{"type":"Point","coordinates":[-46.550984,-23.653446]}},{"type":"Feature","properties":{"endereco":"Rua Las Palmas esquina com a Rua Francisco Mondino","categoria":"BOMBEIRO HIDRANTE"},"geometry":{"type":"Point","coordinates":[-46.557471,-23.653218]}},{"type":"Feature","properties":{"endereco":"Rua Silveiras esquina com a Rua Aquario","categoria":"BOMBEIRO HIDRANTE"},"geometry":{"type":"Point","coordinates":[-46.546124,-23.652134]}},{"type":"Feature","properties":{"endereco":"Praca Lisboa entre as Rua Ilhabela e Avenida Gago Coutinho","categoria":"BOMBEIRO HIDRANTE"},"geometry":{"type":"Point","coordinates":[-46.554538,-23.651642]}},{"type":"Feature","properties":{"nome":"Comando CPA M6","bairro":"Vila Alpina","endereco":"RUA SILVEIRAS, 20","categoria":"PM COMANDO"},"geometry":{"type":"Point","coordinates":[-46.546064,-23.651427]}},{"type":"Feature","properties":{"endereco":"Avenida Palmares esquina com a Rua Pederneiras","categoria":"BOMBEIRO HIDRANTE"},"geometry":{"type":"Point","coordinates":[-46.561992,-23.650913]}},{"type":"Feature","properties":{"endereco":"Travessa Roberto Isler esquina com a Rua Mamede Rocha","categoria":"BOMBEIRO HIDRANTE"},"geometry":{"type":"Point","coordinates":[-46.557804,-23.650383]}},{"type":"Feature","properties":{"endereco":"Avenida Gago Coutinho defronte a Travessa Adao Corinto da Silva","categoria":"BOMBEIRO HIDRANTE"},"geometry":{"type":"Point","coordinates":[-46.555286,-23.649549]}},{"type":"Feature","properties":{"endereco":"Praca do Zodiacos entre a Avenida Prestes Maia e a Rua Silveiras","categoria":"BOMBEIRO HIDRANTE"},"geometry":{"type":"Point","coordinates":[-46.546973,-23.64952]}},{"type":"Feature","properties":{"endereco":"Rua Aracatuba esquina com a Rua Heleia","categoria":"BOMBEIRO HIDRANTE"},"geometry":{"type":"Point","coordinates":[-46.552493,-23.649422]}},{"type":"Feature","properties":{"endereco":"Rua Mamede Rocha esquina com a Rua Herminia Lopes Lobo","categoria":"BOMBEIRO HIDRANTE"},"geometry":{"type":"Point","coordinates":[-46.563258,-23.648786]}},{"type":"Feature","properties":{"endereco":"Avenida Prestes Maia esquina com a Rua das Oliveiras","categoria":"BOMBEIRO HIDRANTE"},"geometry":{"type":"Point","coordinates":[-46.546378,-23.648701]}},{"type":"Feature","properties":{"endereco":"Rua Mamede Rocha entre a Rua Doutor Simao de Lima e Avenida Palmares","categoria":"BOMBEIRO HIDRANTE"},"geometry":{"type":"Point","coordinates":[-46.563538,-23.648685]}},{"type":"Feature","properties":{"nome":"8º Grupamento de Bombeiros","bairro":"Vila Alpina","endereco":"AVENIDA PRESTES MAIA, 1111","categoria":"BOMBEIRO AGRUPAM"},"geometry":{"type":"Point","coordinates":[-46.546126,-23.64854]}},{"type":"Feature","properties":{"endereco":"Rua Alvaro Anes esquina com a Rua Abernesia","categoria":"BOMBEIRO HIDRANTE"},"geometry":{"type":"Point","coordinates":[-46.550284,-23.648432]}},{"type":"Feature","properties":{"endereco":"Avenida Prestes Maia 1112 PB Campestre","categoria":"BOMBEIRO HIDRANTE"},"geometry":{"type":"Point","coordinates":[-46.546667,-23.648375]}},{"type":"Feature","properties":{"nome":"Batalhão 10º BPM/M","bairro":"Santa Maria","endereco":"ALAMEDA SÃO CAETANO, 903","categoria":"PM BATALHAO"},"geometry":{"type":"Point","coordinates":[-46.546612,-23.647607]}},{"type":"Feature","properties":{"endereco":"Rua Tatua­ entre a Rua Alcides de Queiros e a Travessa Santo Fattori","categoria":"BOMBEIRO HIDRANTE"},"geometry":{"type":"Point","coordinates":[-46.519105,-23.661317]}},{"type":"Feature","properties":{"endereco":"Rua Alcides de Queiros esquina com a Rua Onze de Junho","categoria":"BOMBEIRO HIDRANTE"},"geometry":{"type":"Point","coordinates":[-46.522326,-23.661283]}},{"type":"Feature","properties":{"endereco":"Rua Alcides de Queiros 242 esquina com a Avenida Artur de Queiros","categoria":"BOMBEIRO HIDRANTE"},"geometry":{"type":"Point","coordinates":[-46.520212,-23.660901]}},{"type":"Feature","properties":{"endereco":"Avenida Queiros dos Santos 1572 esquina com a Rua Aiala","categoria":"BOMBEIRO HIDRANTE"},"geometry":{"type":"Point","coordinates":[-46.516786,-23.660824]}},{"type":"Feature","properties":{"endereco":"Rua Vinte e Quatro de Fevereiro 269 no Canteiro Central esquina com a Rua Penedo","categoria":"BOMBEIRO HIDRANTE"},"geometry":{"type":"Point","coordinates":[-46.519338,-23.658235]}},{"type":"Feature","properties":{"endereco":"Avenida Henri Sanejouand esquina com a Avenida dos Estados","categoria":"BOMBEIRO HIDRANTE"},"geometry":{"type":"Point","coordinates":[-46.523783,-23.650449]}},{"type":"Feature","properties":{"endereco":"Avenida Itamarati 70 defronte a Rua Aracati","categoria":"BOMBEIRO HIDRANTE"},"geometry":{"type":"Point","coordinates":[-46.524021,-23.647379]}},{"type":"Feature","properties":{"endereco":"Avenida Antonio Cardoso esquina com a Rua Aimbere","categoria":"BOMBEIRO HIDRANTE"},"geometry":{"type":"Point","coordinates":[-46.523068,-23.644258]}},{"type":"Feature","properties":{"endereco":"Avenida Antonio Cardoso esquina com a Rua Araguaia","categoria":"BOMBEIRO HIDRANTE"},"geometry":{"type":"Point","coordinates":[-46.522546,-23.643166]}},{"type":"Feature","properties":{"endereco":"Rua Bolivia 316 esquina com a Rua Oratorio","categoria":"BOMBEIRO HIDRANTE"},"geometry":{"type":"Point","coordinates":[-46.52007,-23.64028]}},{"type":"Feature","properties":{"endereco":"Avenida Ayrton Senna da Silva esquina com a Rua Benetton","categoria":"BOMBEIRO HIDRANTE"},"geometry":{"type":"Point","coordinates":[-46.49452,-23.650993]}},{"type":"Feature","properties":{"endereco":"Avenida Guaratingueta esquina com a Rua Guapiara","categoria":"BOMBEIRO HIDRANTE"},"geometry":{"type":"Point","coordinates":[-46.497832,-23.649829]}},{"type":"Feature","properties":{"nome":"3ª CIA da PM","bairro":"Jardim Rina","endereco":"RUA DÉCIO CARMO BIANCO, 96","categoria":"PM COMPANHIA"},"geometry":{"type":"Point","coordinates":[-46.497605,-23.646506]}},{"type":"Feature","properties":{"endereco":"Rua Olavo Hansen 189 defronte a Rua Sebastiao Augusto Rabelo","categoria":"BOMBEIRO HIDRANTE"},"geometry":{"type":"Point","coordinates":[-46.494151,-23.646031]}},{"type":"Feature","properties":{"endereco":"Avenida Presidente Costa e Silva esquina com a Rua Apalaches","categoria":"BOMBEIRO HIDRANTE"},"geometry":{"type":"Point","coordinates":[-46.48882,-23.645816]}},{"type":"Feature","properties":{"endereco":"Rua Gasconha esquina com a Rua Iberia","categoria":"BOMBEIRO HIDRANTE"},"geometry":{"type":"Point","coordinates":[-46.488944,-23.643693]}},{"type":"Feature","properties":{"endereco":"Rua Martinica esquina com a Rua Iberia","categoria":"BOMBEIRO HIDRANTE"},"geometry":{"type":"Point","coordinates":[-46.491728,-23.642957]}},{"type":"Feature","properties":{"endereco":"Rua Ibiturama 601 esquina com a Rua Paracatu","categoria":"BOMBEIRO HIDRANTE"},"geometry":{"type":"Point","coordinates":[-46.498369,-23.642117]}},{"type":"Feature","properties":{"endereco":"Avenida Presidente Costa e Silva defronte a Avenida Nova Zelandia","categoria":"BOMBEIRO HIDRANTE"},"geometry":{"type":"Point","coordinates":[-46.487568,-23.641784]}},{"type":"Feature","properties":{"endereco":"Rua Evangelista de Souza esquina com a Rua Nepal","categoria":"BOMBEIRO HIDRANTE"},"geometry":{"type":"Point","coordinates":[-46.490001,-23.640608]}},{"type":"Feature","properties":{"endereco":"Avenida Itamarati esquina com a Rua Caxambu","categoria":"BOMBEIRO HIDRANTE"},"geometry":{"type":"Point","coordinates":[-46.49941,-23.645696]}},{"type":"Feature","properties":{"endereco":"Avenida Itamarati 2815 esquina com a Rua Farroupilha","categoria":"BOMBEIRO HIDRANTE"},"geometry":{"type":"Point","coordinates":[-46.502651,-23.645427]}},{"type":"Feature","properties":{"endereco":"Rua Massaranduba 1224 esquina com a Rua Pindorama","categoria":"BOMBEIRO HIDRANTE"},"geometry":{"type":"Point","coordinates":[-46.506436,-23.644871]}},{"type":"Feature","properties":{"endereco":"Rua Itacoatiara esquina com a Avenida Eduardo Prado","categoria":"BOMBEIRO HIDRANTE"},"geometry":{"type":"Point","coordinates":[-46.501339,-23.641712]}},{"type":"Feature","properties":{"endereco":"Avenida das Nacoes 967 proximo a Esquina da Rua Ceilao","categoria":"BOMBEIRO HIDRANTE"},"geometry":{"type":"Point","coordinates":[-46.502691,-23.635469]}},{"type":"Feature","properties":{"endereco":"Rua Angola 832 proximo da esquina com a Rua Estonia","categoria":"BOMBEIRO HIDRANTE"},"geometry":{"type":"Point","coordinates":[-46.507246,-23.635277]}},{"type":"Feature","properties":{"endereco":"Rua Estonia proximo a esquina com a Rua Madagascar","categoria":"BOMBEIRO HIDRANTE"},"geometry":{"type":"Point","coordinates":[-46.50606,-23.634929]}},{"type":"Feature","properties":{"nome":"5º Distrito Policial de Santo André","bairro":"Parque Oratório","endereco":"AVENIDA ARAUCÁRIA, 1194","categoria":"PCIVIL DELEGACIA"},"geometry":{"type":"Point","coordinates":[-46.505997,-23.631255]}},{"type":"Feature","properties":{"endereco":"Avenida das Nacoes esquina com a Rua Basileia","categoria":"BOMBEIRO HIDRANTE"},"geometry":{"type":"Point","coordinates":[-46.503258,-23.631086]}},{"type":"Feature","properties":{"endereco":"Rua Dalmacia 498 esquina com a Rua Basileia","categoria":"BOMBEIRO HIDRANTE"},"geometry":{"type":"Point","coordinates":[-46.500612,-23.630731]}},{"type":"Feature","properties":{"endereco":"Rua Germania esquina com a Rua Indonesia","categoria":"BOMBEIRO HIDRANTE"},"geometry":{"type":"Point","coordinates":[-46.49449,-23.639236]}},{"type":"Feature","properties":{"endereco":"Rua Evangelista de Souza 1638 defronte a Rua Georgia","categoria":"BOMBEIRO HIDRANTE"},"geometry":{"type":"Point","coordinates":[-46.491364,-23.638852]}},{"type":"Feature","properties":{"endereco":"Rua Balaclava 1113 esquina com a Rua Sudao","categoria":"BOMBEIRO HIDRANTE"},"geometry":{"type":"Point","coordinates":[-46.49239,-23.636049]}},{"type":"Feature","properties":{"endereco":"Rua Fenicia 723","categoria":"BOMBEIRO HIDRANTE"},"geometry":{"type":"Point","coordinates":[-46.497392,-23.633652]}},{"type":"Feature","properties":{"endereco":"Rua Petrogrado 412 esquina com a Rua Batavia","categoria":"BOMBEIRO HIDRANTE"},"geometry":{"type":"Point","coordinates":[-46.492804,-23.632307]}},{"type":"Feature","properties":{"endereco":"Rua Atabasca esquina com a Rua Genebra","categoria":"BOMBEIRO HIDRANTE"},"geometry":{"type":"Point","coordinates":[-46.494345,-23.632001]}},{"type":"Feature","properties":{"endereco":"Avenida Nestor de Barros proximo a esquina com a Rua Rodrigo Otavio","categoria":"BOMBEIRO HIDRANTE"},"geometry":{"type":"Point","coordinates":[-46.491434,-23.629412]}},{"type":"Feature","properties":{"endereco":"Rua Osorio de Almeida 245 esquina com a Rua Basileia","categoria":"BOMBEIRO HIDRANTE"},"geometry":{"type":"Point","coordinates":[-46.492683,-23.629329]}},{"type":"Feature","properties":{"endereco":"Rua Alberto Magno esquina com a Rua Presidente Washington Luis","categoria":"BOMBEIRO HIDRANTE"},"geometry":{"type":"Point","coordinates":[-46.490927,-23.627339]}},{"type":"Feature","properties":{"endereco":"Rua Oratorio 4493 em frente ao Vencedor Atacadista","categoria":"BOMBEIRO HIDRANTE"},"geometry":{"type":"Point","coordinates":[-46.497346,-23.625669]}},{"type":"Feature","properties":{"endereco":"Rua Madagascar esquina com a Rua Tunisia","categoria":"BOMBEIRO HIDRANTE"},"geometry":{"type":"Point","coordinates":[-46.507576,-23.630335]}},{"type":"Feature","properties":{"endereco":"Rua Madagascar 132 esquina com a Rua Tanger","categoria":"BOMBEIRO HIDRANTE"},"geometry":{"type":"Point","coordinates":[-46.508056,-23.628988]}},{"type":"Feature","properties":{"endereco":"Rua Genebra proximo da esquina com a Rua Dardanelos","categoria":"BOMBEIRO HIDRANTE"},"geometry":{"type":"Point","coordinates":[-46.500516,-23.628517]}},{"type":"Feature","properties":{"endereco":"Avenida Dom Bosco esquina com a Rua Columbia","categoria":"BOMBEIRO HIDRANTE"},"geometry":{"type":"Point","coordinates":[-46.523543,-23.633332]}},{"type":"Feature","properties":{"endereco":"Rua Dom Bosco 524 próximo da esquina com a Travessa Itapolis","categoria":"BOMBEIRO HIDRANTE"},"geometry":{"type":"Point","coordinates":[-46.519,-23.631106]}},{"type":"Feature","properties":{"endereco":"Rua Alfredo Maluf 374 entre a Rua Olimpo e a Travessa Piedade","categoria":"BOMBEIRO HIDRANTE"},"geometry":{"type":"Point","coordinates":[-46.522495,-23.630618]}},{"type":"Feature","properties":{"endereco":"Rua Alexandreta 131 em frente a UBS Doutor Moyses Fucs","categoria":"BOMBEIRO HIDRANTE"},"geometry":{"type":"Point","coordinates":[-46.521895,-23.627483]}},{"type":"Feature","properties":{"endereco":"Rua Lucinda Ferreira esquina com a Praca Heliopolis","categoria":"BOMBEIRO HIDRANTE"},"geometry":{"type":"Point","coordinates":[-46.515719,-23.627473]}},{"type":"Feature","properties":{"endereco":"Rua do Carlao esquina com a Rua Helena Ferreira","categoria":"BOMBEIRO HIDRANTE"},"geometry":{"type":"Point","coordinates":[-46.513869,-23.626986]}},{"type":"Feature","properties":{"endereco":"Avenida Martim Francisco 1270 no interior do Posto de Bombeiro Vila Lucinda","categoria":"BOMBEIRO HIDRANTE"},"geometry":{"type":"Point","coordinates":[-46.518301,-23.626365]}},{"type":"Feature","properties":{"nome":"Corpo de Bombeiros","bairro":"Vila Lucinda","endereco":"AVENIDA MARTIM FRANCISCO, 1270","categoria":"BOMBEIRO AGRUPAM"},"geometry":{"type":"Point","coordinates":[-46.518301,-23.626365]}},{"type":"Feature","properties":{"nome":"1ª CIA da PM","bairro":"Jardim Santo Antônio","endereco":"RUA ALEMANHA, 12","categoria":"PM COMPANHIA"},"geometry":{"type":"Point","coordinates":[-46.524433,-23.624485]}},{"type":"Feature","properties":{"endereco":"Rua Teresopolis esquina com a Rua Japao","categoria":"BOMBEIRO HIDRANTE"},"geometry":{"type":"Point","coordinates":[-46.521797,-23.624257]}},{"type":"Feature","properties":{"endereco":"Rua Farsalia 76 esquina com a Rua das Maravilhas","categoria":"BOMBEIRO HIDRANTE"},"geometry":{"type":"Point","coordinates":[-46.516911,-23.622171]}},{"type":"Feature","properties":{"endereco":"Avenida Martim Francisco esquina com a Rua Claudio Manoel Da Costa","categoria":"BOMBEIRO HIDRANTE"},"geometry":{"type":"Point","coordinates":[-46.520398,-23.621969]}},{"type":"Feature","properties":{"endereco":"Avenida Joao Pessoa 69 proximo a esquina com a Rua Clara","categoria":"BOMBEIRO HIDRANTE"},"geometry":{"type":"Point","coordinates":[-46.523001,-23.620093]}},{"type":"Feature","properties":{"endereco":"Rua General Glicerio 125 esquina com a Rua Bernardino de Campos","categoria":"BOMBEIRO HIDRANTE"},"geometry":{"type":"Point","coordinates":[-46.52786,-23.654348]}},{"type":"Feature","properties":{"endereco":"Avenida Queiros dos Santos esquina com a Rua Coronel Oliveira Lima","categoria":"BOMBEIRO HIDRANTE"},"geometry":{"type":"Point","coordinates":[-46.526274,-23.65426]}},{"type":"Feature","properties":{"endereco":"Avenida Quinze de Novembro esquina com a Rua General Glicerio","categoria":"BOMBEIRO HIDRANTE"},"geometry":{"type":"Point","coordinates":[-46.529156,-23.653826]}},{"type":"Feature","properties":{"endereco":"Avenida Henri Sanejouand esquina com a Rua Visconde De Taunay","categoria":"BOMBEIRO HIDRANTE"},"geometry":{"type":"Point","coordinates":[-46.525923,-23.653131]}},{"type":"Feature","properties":{"endereco":"Avenida Padre Anchieta defronte a Rua das Bandeiras","categoria":"BOMBEIRO HIDRANTE"},"geometry":{"type":"Point","coordinates":[-46.532353,-23.65265]}},{"type":"Feature","properties":{"endereco":"Avenida Antonio Cardoso esquina com a Avenida Do Estado","categoria":"BOMBEIRO HIDRANTE"},"geometry":{"type":"Point","coordinates":[-46.525387,-23.64812]}},{"type":"Feature","properties":{"endereco":"Rua Abolicao esquina com a Rua Oratorio","categoria":"BOMBEIRO HIDRANTE"},"geometry":{"type":"Point","coordinates":[-46.526318,-23.644704]}},{"type":"Feature","properties":{"endereco":"Avenida dos Estados 4430","categoria":"BOMBEIRO HIDRANTE"},"geometry":{"type":"Point","coordinates":[-46.532557,-23.643608]}},{"type":"Feature","properties":{"nome":"2º Distrito Policial de Santo André","bairro":"Bangú","endereco":"RUA ANGATUBA, 115","categoria":"PCIVIL DELEGACIA"},"geometry":{"type":"Point","coordinates":[-46.528772,-23.63986]}},{"type":"Feature","properties":{"endereco":"Praca Joao Rosa proximo da esquina com a Rua Rio Grande do Norte","categoria":"BOMBEIRO HIDRANTE"},"geometry":{"type":"Point","coordinates":[-46.532163,-23.639563]}},{"type":"Feature","properties":{"endereco":"Avenida Industrial defronte a Rua Padre Vieira","categoria":"BOMBEIRO HIDRANTE"},"geometry":{"type":"Point","coordinates":[-46.533549,-23.648436]}},{"type":"Feature","properties":{"endereco":"Rua das Palmeiras esquina com a Rua das Goiabeiras","categoria":"BOMBEIRO HIDRANTE"},"geometry":{"type":"Point","coordinates":[-46.538031,-23.647476]}},{"type":"Feature","properties":{"endereco":"Avenida Industrial 950 proximo da Rua das Caneleiras","categoria":"BOMBEIRO HIDRANTE"},"geometry":{"type":"Point","coordinates":[-46.535289,-23.645526]}},{"type":"Feature","properties":{"endereco":"Rua das Caneleiras 154 entre a Avenida Dom Pedro II e a Alameda Gaspar Nogueira","categoria":"BOMBEIRO HIDRANTE"},"geometry":{"type":"Point","coordinates":[-46.536813,-23.645448]}},{"type":"Feature","properties":{"endereco":"Avenida Industrial esquina com a Alameda Roger Adam","categoria":"BOMBEIRO HIDRANTE"},"geometry":{"type":"Point","coordinates":[-46.53766,-23.641588]}},{"type":"Feature","properties":{"endereco":"Avenida dos Estados S/N proximo ao Moinho Sao Jorge","categoria":"BOMBEIRO HIDRANTE"},"geometry":{"type":"Point","coordinates":[-46.533996,-23.640891]}},{"type":"Feature","properties":{"endereco":"Avenida Industrial defronte a Praca Galdino Ramos da Silva","categoria":"BOMBEIRO HIDRANTE"},"geometry":{"type":"Point","coordinates":[-46.538429,-23.640201]}},{"type":"Feature","properties":{"nome":"2ª CIA da PM","bairro":"Campestre","endereco":"RUA DOS COQUEIROS, 261","categoria":"PM COMPANHIA"},"geometry":{"type":"Point","coordinates":[-46.540197,-23.640154]}},{"type":"Feature","properties":{"endereco":"Rua Paulo Setubal esquina com a Rua Distrito Federal","categoria":"BOMBEIRO HIDRANTE"},"geometry":{"type":"Point","coordinates":[-46.533399,-23.639696]}},{"type":"Feature","properties":{"nome":"1º Inspetoria (TERSA)","bairro":"Campestre","endereco":"AVENIDA INDUSTRIAL, 1850","categoria":"GCM INSPETORIA"},"geometry":{"type":"Point","coordinates":[-46.538641,-23.639291]}},{"type":"Feature","properties":{"endereco":"Rua Mamede Rocha esquina com a Rua Doutor Simao De Lima","categoria":"BOMBEIRO HIDRANTE"},"geometry":{"type":"Point","coordinates":[-46.564548,-23.647311]}},{"type":"Feature","properties":{"endereco":"Rua Jaguari esquina com a Avenida Prestes Maia","categoria":"BOMBEIRO HIDRANTE"},"geometry":{"type":"Point","coordinates":[-46.544905,-23.646938]}},{"type":"Feature","properties":{"endereco":"Rua Marcilio Dias esquina com a Avenida Gago Coutinho","categoria":"BOMBEIRO HIDRANTE"},"geometry":{"type":"Point","coordinates":[-46.555011,-23.646451]}},{"type":"Feature","properties":{"endereco":"Rua Marcilio Dias esquina com a Alameda Sao Caetano no canteiro Central","categoria":"BOMBEIRO HIDRANTE"},"geometry":{"type":"Point","coordinates":[-46.551198,-23.644639]}},{"type":"Feature","properties":{"endereco":"Rua Abernesia esquina com a Rua Marina","categoria":"BOMBEIRO HIDRANTE"},"geometry":{"type":"Point","coordinates":[-46.553189,-23.643489]}},{"type":"Feature","properties":{"endereco":"Praca Orfeu Scucuglla Entre A Rua Simao Jorge e Rua dos Jequitibas","categoria":"BOMBEIRO HIDRANTE"},"geometry":{"type":"Point","coordinates":[-46.549435,-23.6416]}},{"type":"Feature","properties":{"endereco":"Rua Joao Ribeiro esquina com a Rua Marina","categoria":"BOMBEIRO HIDRANTE"},"geometry":{"type":"Point","coordinates":[-46.544465,-23.638919]}},{"type":"Feature","properties":{"endereco":"Rua Jequitinhonha esquina com a Rua Maria Ortiz","categoria":"BOMBEIRO HIDRANTE"},"geometry":{"type":"Point","coordinates":[-46.549475,-23.637073]}},{"type":"Feature","properties":{"endereco":"Rua Rosa de Siqueira esquina com a Avenida Dom Pedro II","categoria":"BOMBEIRO HIDRANTE"},"geometry":{"type":"Point","coordinates":[-46.545341,-23.632683]}},{"type":"Feature","properties":{"endereco":"Avenida Industrial esquina com a Rua Maria Ursula","categoria":"BOMBEIRO HIDRANTE"},"geometry":{"type":"Point","coordinates":[-46.544666,-23.630276]}},{"type":"Feature","properties":{"endereco":"Rua Tordesilhas esquina com a Rua Alemanha","categoria":"BOMBEIRO HIDRANTE"},"geometry":{"type":"Point","coordinates":[-46.529472,-23.639247]}},{"type":"Feature","properties":{"endereco":"Rua Japao 92 esquina com a Rua Suica","categoria":"BOMBEIRO HIDRANTE"},"geometry":{"type":"Point","coordinates":[-46.526528,-23.637584]}},{"type":"Feature","properties":{"endereco":"Rua Japao esquina com a Rua Belgica","categoria":"BOMBEIRO HIDRANTE"},"geometry":{"type":"Point","coordinates":[-46.526134,-23.634288]}},{"type":"Feature","properties":{"endereco":"Rua General Polidoro esquina com a Avenida Pinhal","categoria":"BOMBEIRO HIDRANTE"},"geometry":{"type":"Point","coordinates":[-46.529855,-23.630655]}},{"type":"Feature","properties":{"nome":"2º Inspetoria (PIGNATARI)","bairro":"Vila Camilópolis","endereco":"AVENIDA UTINGA, 136","categoria":"GCM INSPETORIA"},"geometry":{"type":"Point","coordinates":[-46.531542,-23.629877]}},{"type":"Feature","properties":{"nome":"Setor de Homicídios","bairro":"Vila Metalúrgica","endereco":"AVENIDA UTINGA, 288","categoria":"PCIVIL DELEGACIA"},"geometry":{"type":"Point","coordinates":[-46.53249,-23.629156]}},{"type":"Feature","properties":{"endereco":"Rua Japao 1161 entre a Rua Cambises e Rua Justiniano","categoria":"BOMBEIRO HIDRANTE"},"geometry":{"type":"Point","coordinates":[-46.524655,-23.628431]}},{"type":"Feature","properties":{"endereco":"Rua Do Centro esquina com a Rua Nilde","categoria":"BOMBEIRO HIDRANTE"},"geometry":{"type":"Point","coordinates":[-46.529402,-23.627415]}},{"type":"Feature","properties":{"endereco":"Rua Ercilia 199 esquina com a Rua do Centro","categoria":"BOMBEIRO HIDRANTE"},"geometry":{"type":"Point","coordinates":[-46.52786,-23.624798]}},{"type":"Feature","properties":{"endereco":"Rua Sidnei esquina com a Rua Cartagena","categoria":"BOMBEIRO HIDRANTE"},"geometry":{"type":"Point","coordinates":[-46.531288,-23.621943]}},{"type":"Feature","properties":{"endereco":"Avenida Industrial proximo a esquina da Rua Marina","categoria":"BOMBEIRO HIDRANTE"},"geometry":{"type":"Point","coordinates":[-46.540074,-23.637608]}},{"type":"Feature","properties":{"endereco":"Alameda Martins Fontes esquina com a Praca Rui Barbosa","categoria":"BOMBEIRO HIDRANTE"},"geometry":{"type":"Point","coordinates":[-46.533009,-23.636133]}},{"type":"Feature","properties":{"endereco":"Avenida Industrial proximo a esquina com a Rua General Canavarro","categoria":"BOMBEIRO HIDRANTE"},"geometry":{"type":"Point","coordinates":[-46.54189,-23.63462]}},{"type":"Feature","properties":{"endereco":"Avenida Industrial esquina com a Rua Rondonia","categoria":"BOMBEIRO HIDRANTE"},"geometry":{"type":"Point","coordinates":[-46.543513,-23.631928]}},{"type":"Feature","properties":{"endereco":"Avenida dos Estados 100 lado oposto ao Sacolao Saude","categoria":"BOMBEIRO HIDRANTE"},"geometry":{"type":"Point","coordinates":[-46.539716,-23.628369]}},{"type":"Feature","properties":{"endereco":"Avenida Varsovia 1080 entre a Rua Bilbao e Rua Diepe","categoria":"BOMBEIRO HIDRANTE"},"geometry":{"type":"Point","coordinates":[-46.538348,-23.6276]}},{"type":"Feature","properties":{"endereco":"Rua Comendador Julio Pignatari esquina com a Biboca Diagonal","categoria":"BOMBEIRO HIDRANTE"},"geometry":{"type":"Point","coordinates":[-46.543255,-23.624811]}},{"type":"Feature","properties":{"endereco":"Avenida dos Estados esquina com a Rua Chipre","categoria":"BOMBEIRO HIDRANTE"},"geometry":{"type":"Point","coordinates":[-46.541366,-23.623267]}},{"type":"Feature","properties":{"endereco":"Rua Berna 210 esquina com a Rua Sidnei","categoria":"BOMBEIRO HIDRANTE"},"geometry":{"type":"Point","coordinates":[-46.533391,-23.622519]}},{"type":"Feature","properties":{"endereco":"Avenida dos Estados entre a Rua Teixeira de Freitas e a Rua Doutor Belizario Alves Tavares","categoria":"BOMBEIRO HIDRANTE"},"geometry":{"type":"Point","coordinates":[-46.542115,-23.619909]}},{"type":"Feature","properties":{"endereco":"Avenida Tiete esquina com a Praca Cesar Ladeira","categoria":"BOMBEIRO HIDRANTE"},"geometry":{"type":"Point","coordinates":[-46.547926,-23.630055]}},{"type":"Feature","properties":{"endereco":"Rua Felipe Camarao 500 entre a Avenida Prosperidade e a Avenida dos Estado","categoria":"BOMBEIRO HIDRANTE"},"geometry":{"type":"Point","coordinates":[-46.54476,-23.615842]}},{"type":"Feature","properties":{"endereco":"Avenida dos Estados 4826","categoria":"BOMBEIRO HIDRANTE"},"geometry":{"type":"Point","coordinates":[-46.544605,-23.610523]}},{"type":"Feature","properties":{"endereco":"Rua Sidnei proximo a esquina com a Rua Olimpia","categoria":"BOMBEIRO HIDRANTE"},"geometry":{"type":"Point","coordinates":[-46.528813,-23.621409]}},{"type":"Feature","properties":{"endereco":"Rua Lima esquina com a Rua Bari","categoria":"BOMBEIRO HIDRANTE"},"geometry":{"type":"Point","coordinates":[-46.532811,-23.620898]}},{"type":"Feature","properties":{"endereco":"Rua Olimpia 624 esquina com Rua Taubate","categoria":"BOMBEIRO HIDRANTE"},"geometry":{"type":"Point","coordinates":[-46.527103,-23.618717]}},{"type":"Feature","properties":{"endereco":"Rua Teixeira de Freitas esquina com a Avenida Utinga","categoria":"BOMBEIRO HIDRANTE"},"geometry":{"type":"Point","coordinates":[-46.538463,-23.618938]}},{"type":"Feature","properties":{"endereco":"Avenida dos Estados esquina com a Rua Felipe Camarao","categoria":"BOMBEIRO HIDRANTE"},"geometry":{"type":"Point","coordinates":[-46.543686,-23.615378]}},{"type":"Feature","properties":{"endereco":"Avenida dos Estados 3870","categoria":"BOMBEIRO HIDRANTE"},"geometry":{"type":"Point","coordinates":[-46.543526,-23.613571]}}]}